City_ID,City,Lat,Lng,Max Temp,Humidity,Cloudiness,Wind Speed,Country,Date
0,lensk,60.7253,114.9278,289.07,38,94,1.81,RU,1685958515
1,lata,40.1629,-8.3327,299.53,49,30,1.13,PT,1685958516
2,waitangi,-43.9535,-176.5597,281.94,90,59,8.93,NZ,1685958516
3,vernon,50.2581,-119.2691,285.79,41,0,1.03,CA,1685958516
4,port-aux-francais,-49.35,70.2167,281.0,88,90,17.81,TF,1685958516
5,hakha,22.65,93.6167,294.55,62,93,0.39,MM,1685958517
6,grand falls-windsor,48.9332,-55.6649,277.87,95,100,1.04,CA,1685958517
7,afaahiti,-17.75,-149.2833,296.08,72,42,4.69,PF,1685958517
8,constantia,44.1833,28.65,295.76,49,7,6.05,RO,1685958432
9,lihue,21.9789,-159.3672,296.92,75,20,4.63,US,1685958517
10,bredasdorp,-34.5322,20.0403,287.2,56,93,4.1,ZA,1685958518
11,bethel,41.3712,-73.414,284.35,88,100,0.0,US,1685958371
12,adamstown,-25.066,-130.1015,294.43,71,2,8.38,PN,1685958518
13,ribeira grande,38.5167,-28.7,293.58,83,40,7.2,PT,1685958518
14,stanley,54.868,-1.6985,287.89,70,40,2.57,GB,1685958518
15,flin flon,54.7682,-101.865,289.1,91,22,3.39,CA,1685958519
16,kokopo,-4.352,152.2633,299.35,83,53,4.64,PG,1685958519
17,chernyshevskiy,63.0128,112.4714,285.58,36,86,3.32,RU,1685958519
18,howrah,22.5892,88.3103,312.15,39,40,4.12,IN,1685958519
19,grytviken,-54.2811,-36.5092,273.86,98,100,2.77,GS,1685958519
20,kirensk,57.7853,108.1119,285.03,94,100,3.93,RU,1685958520
21,ust-nera,64.5667,143.2,289.21,40,92,1.48,RU,1685958520
22,dakhla,23.6848,-15.958,295.16,78,0,6.17,EH,1685958520
23,invercargill,-46.4,168.35,279.47,92,69,1.39,NZ,1685958520
24,broome,42.2506,-75.833,282.6,85,24,1.1,US,1685958520
25,klyuchi,52.2667,79.1667,307.98,19,1,6.69,RU,1685958521
26,tolanaro,-25.0319,46.9987,303.19,51,20,8.23,MG,1685958521
27,puerto natales,-51.7236,-72.4875,274.28,88,98,1.26,CL,1685958521
28,malayer,34.2969,48.8235,304.39,15,6,5.79,IR,1685958521
29,qaqortoq,60.7167,-46.0333,276.86,85,100,1.91,GL,1685958522
30,carnarvon,-24.8667,113.6333,294.38,59,21,9.82,AU,1685958522
31,coahuayana de hidalgo,18.7,-103.6583,298.04,87,80,0.19,MX,1685958522
32,blackmans bay,-43.0167,147.3167,284.22,85,100,4.42,AU,1685958522
33,al hazm,16.1641,44.7769,308.4,11,4,3.26,YE,1685958522
34,dhankuta,26.9833,87.3333,303.13,36,53,2.73,NP,1685958523
35,mount darwin,-16.7725,31.5838,302.83,18,0,2.03,ZW,1685958523
36,edinburgh of the seven seas,-37.0676,-12.3116,287.07,90,79,18.84,SH,1685958523
37,coquimbo,-29.9533,-71.3436,284.0,100,100,1.54,CL,1685958523
38,margaret river,-33.95,115.0667,285.46,64,100,10.42,AU,1685958524
39,kalmunai,7.4167,81.8167,304.87,66,82,5.53,LK,1685958524
40,el sauzal de rodriguez,31.9,-116.6833,288.94,72,74,1.05,MX,1685958524
41,punta arenas,-53.15,-70.9167,277.21,87,100,7.2,CL,1685958524
42,olonkinbyen,70.9221,-8.7187,273.04,77,100,3.0,SJ,1685958524
43,katsuren-haebaru,26.3369,127.8719,300.36,65,100,4.12,JP,1685958525
44,chinde,26.8418,88.0763,299.56,41,78,1.29,NP,1685958525
45,dunda,-8.1167,34.25,301.8,34,12,2.41,TZ,1685958525
46,bilibino,68.0546,166.4372,282.83,86,100,2.64,RU,1685958525
47,iqaluit,63.7506,-68.5145,273.0,86,100,2.57,CA,1685958525
48,ushuaia,-54.8,-68.3,278.96,45,0,6.69,AR,1685958526
49,laguna,38.421,-121.4238,296.1,65,0,2.06,US,1685958526
50,guiuan,11.0333,125.7247,302.59,73,83,3.0,PH,1685958526
51,wailua homesteads,22.0669,-159.378,296.59,76,20,4.63,US,1685958526
52,rosarito,32.3333,-117.0333,290.08,78,81,1.42,MX,1685958527
53,utrik,11.2278,169.8474,299.38,87,100,7.59,MH,1685958527
54,tsukumiura,33.0706,131.8572,293.86,69,100,1.64,JP,1685958527
55,sultanah,24.4926,39.5857,311.4,16,20,2.06,SA,1685958527
56,georgetown,5.4112,100.3354,305.12,66,40,3.09,MY,1685958350
57,albany,42.6001,-73.9662,284.15,87,61,0.45,US,1685958528
58,hithadhoo,-0.6,73.0833,301.52,71,99,1.22,MV,1685958528
59,yellowknife,62.456,-114.3525,289.44,77,75,4.12,CA,1685958528
60,xining,36.6167,101.7667,292.5,45,33,5.69,CN,1685958528
61,carbonear,47.7332,-53.2148,278.94,97,100,3.57,CA,1685958529
62,bovec,46.3375,13.5528,289.68,88,75,0.0,SI,1685958529
63,santa marta,11.2408,-74.199,299.76,78,99,0.45,CO,1685958529
64,hawaiian paradise park,19.5933,-154.9731,294.28,93,0,2.06,US,1685958529
65,badger,64.8,-147.5333,284.08,77,0,2.06,US,1685958530
66,tchintabaraden,15.8969,5.7985,310.6,30,83,7.46,NE,1685958530
67,nova sintra,14.8667,-24.7167,293.64,80,29,2.8,CV,1685958530
68,nar'yan-mar,67.6713,53.087,285.24,43,90,10.98,RU,1685958530
69,colonia,50.9333,6.95,297.07,45,0,1.54,DE,1685958250
70,owando,-0.4819,15.8999,303.21,56,92,2.07,CG,1685958531
71,jumla,29.2747,82.1838,293.12,45,89,2.62,NP,1685958531
72,sitka,57.0531,-135.33,284.09,71,75,7.2,US,1685958531
73,trairi,-3.2778,-39.2689,296.84,92,53,3.77,BR,1685958531
74,tiksi,71.6872,128.8694,274.49,98,100,1.84,RU,1685958532
75,susuman,62.7833,148.1667,284.29,61,98,2.09,RU,1685958532
76,lebu,-37.6167,-73.65,283.21,64,98,2.37,CL,1685958532
77,puerto baquerizo moreno,-0.9,-89.6,298.66,85,58,4.39,EC,1685958532
78,ilulissat,69.2167,-51.1,273.16,69,75,0.0,GL,1685958533
79,hamilton,39.1834,-84.5333,289.81,64,0,0.0,US,1685958533
80,port mathurin,-19.6833,63.4167,298.1,74,3,10.21,MU,1685958533
81,jamestown,42.097,-79.2353,282.95,71,0,2.57,US,1685958533
82,kangdong-up,39.1425,126.0961,294.31,68,24,5.09,KP,1685958533
83,shingu,33.7333,135.9833,294.31,73,98,1.46,JP,1685958534
84,anadyr,64.75,177.4833,275.43,93,75,10.0,RU,1685958534
85,dange,12.8513,5.3471,306.35,44,98,5.03,NG,1685958534
86,st. john's,47.5649,-52.7093,278.69,98,100,3.13,CA,1685958534
87,geraldton,-28.7667,114.6,290.38,63,100,13.38,AU,1685958535
88,talnakh,69.4865,88.3972,283.82,53,18,2.69,RU,1685958352
89,licab,15.5439,120.7634,301.88,79,89,2.45,PH,1685958535
90,nova vicosa,-17.8919,-39.3719,295.94,62,78,1.23,BR,1685958536
91,saint-philippe,-21.3585,55.7679,299.92,81,35,6.24,RE,1685958536
92,saipan,15.1355,145.701,301.54,100,20,5.14,MP,1685958536
93,sao gabriel da cachoeira,-0.1303,-67.0892,294.86,99,76,0.89,BR,1685958536
94,al quwayrah,29.8004,35.3116,299.15,24,1,5.38,JO,1685958536
95,sur,22.5667,59.5289,310.61,38,0,3.27,OM,1685958313
96,enewetak,11.3474,162.3373,301.08,79,95,3.68,MH,1685958537
97,treinta y tres,-33.2333,-54.3833,279.49,88,6,1.29,UY,1685958537
98,holualoa,19.6228,-155.9522,294.06,89,100,2.68,US,1685958537
99,west island,-12.1568,96.8225,301.14,69,40,6.69,CC,1685958538
100,puerto ayora,-0.7393,-90.3518,297.9,100,37,2.24,EC,1685958538
101,pierre,44.3683,-100.351,289.66,94,0,1.79,US,1685958538
102,vanimo,-2.6741,141.3028,299.44,90,59,2.87,PG,1685958538
103,tura,25.5198,90.2201,309.28,30,54,1.86,IN,1685958538
104,taulaga,-11.0553,-171.0883,301.67,67,58,7.47,AS,1685958539
105,ampanihy,-24.7,44.75,304.18,29,1,2.2,MG,1685958539
106,vadso,70.0744,29.7487,280.24,65,75,4.63,NO,1685958539
107,keflavik,64.0049,-22.5624,281.1,81,100,6.17,IS,1685958539
108,kodiak,57.79,-152.4072,279.88,100,100,5.14,US,1685958539
109,rongelap,11.1635,166.8941,300.94,80,81,8.1,MH,1685958540
110,bikenibeu village,1.3673,173.1241,301.13,83,75,0.51,KI,1685958540
111,nuuk,64.1835,-51.7216,274.49,93,75,10.29,GL,1685958291
112,isafjordur,66.0755,-23.124,280.17,76,75,2.57,IS,1685958540
113,whitehorse,60.7161,-135.0538,288.58,43,100,3.09,CA,1685958332
114,portland,45.5234,-122.6762,287.17,57,0,4.12,US,1685958292
115,kerikeri,-35.2268,173.9474,282.54,94,93,0.45,NZ,1685958541
116,selkirk,50.1436,-96.8845,293.76,96,75,2.03,CA,1685958541
117,iskateley,67.6803,53.1512,285.24,43,91,11.03,RU,1685958541
118,vilyuchinsk,52.9306,158.4028,280.3,96,100,0.59,RU,1685958182
119,vorgashor,67.5833,63.95,279.94,78,100,3.47,RU,1685958542
120,suntar,62.1444,117.6319,285.6,40,81,3.55,RU,1685958542
121,yorkton,51.2167,-102.4677,294.06,83,40,3.09,CA,1685958542
122,la passe,45.5549,-0.8967,297.06,66,67,3.48,FR,1685958542
123,ancud,-41.8697,-73.8203,283.44,90,100,9.09,CL,1685958543
124,garoowe,8.4054,48.4845,306.16,40,96,8.43,SO,1685958543
125,mournies,35.4764,24.0092,297.37,60,20,3.6,GR,1685958543
126,ermoupolis,37.4423,24.9425,297.54,60,0,6.17,GR,1685958544
127,college,64.8569,-147.8028,284.12,74,40,2.06,US,1685958544
128,odacho-oda,35.1833,132.5,295.58,83,100,3.16,JP,1685958544
129,hasaki,35.7333,140.8333,298.27,73,98,4.59,JP,1685958544
130,chai badan,15.2,101.1333,305.62,54,100,3.62,TH,1685958544
131,tateyama,34.9833,139.8667,294.44,75,100,2.2,JP,1685958545
132,verkhnevilyuysk,63.4453,120.3167,279.16,84,100,3.0,RU,1685958545
133,uturoa,-16.7333,-151.4333,299.46,73,37,5.01,PF,1685958545
134,kalabo,-14.97,22.6814,303.38,17,0,3.14,ZM,1685958545
135,mount isa,-20.7333,139.5,293.02,60,45,0.0,AU,1685958545
136,puerto aysen,-45.4,-72.7,278.76,100,100,1.14,CL,1685958546
137,petauke,-14.2426,31.3253,301.95,27,0,2.39,ZM,1685958546
138,bhamo,24.2667,97.2333,311.47,33,50,1.63,MM,1685958547
139,alice springs,-23.7,133.8833,293.9,43,75,0.0,AU,1685958547
140,porto velho,-8.7619,-63.9039,297.18,94,20,0.0,BR,1685958343
141,meiktila,20.8667,95.8667,307.66,43,92,3.34,MM,1685958547
142,la foa,-21.7108,165.8276,294.95,77,100,3.5,NC,1685958547
143,khandyga,62.6667,135.6,292.31,51,95,2.18,RU,1685958548
144,trstenik,43.6169,21.0025,296.38,66,100,2.97,RS,1685958548
145,longyearbyen,78.2186,15.6401,276.06,65,20,2.06,SJ,1685958548
146,baruun-urt,46.6806,113.2792,293.93,24,62,7.27,MN,1685958548
147,hermanus,-34.4187,19.2345,288.04,56,100,3.53,ZA,1685958548
148,kaedi,16.1465,-13.5047,307.68,19,90,5.68,MR,1685958549
149,port shepstone,-30.7414,30.455,292.95,46,0,8.45,ZA,1685958282
150,tsengel,49.4783,100.8894,294.46,35,96,3.88,MN,1685958549
151,aldan,58.6031,125.3894,282.58,64,96,4.42,RU,1685958549
152,karibib,-21.9333,15.8333,296.93,6,0,2.96,NA,1685958550
153,san antonio de pale,-1.4014,5.6325,298.82,86,99,5.78,GQ,1685958550
154,gadzhiyevo,69.2551,33.3362,276.36,93,100,10.26,RU,1685958550
155,gaiman,-43.2897,-65.4929,283.16,35,100,7.41,AR,1685958550
156,castillos,-34.1667,-53.8333,281.04,80,2,2.4,UY,1685958551
157,kailua-kona,19.6406,-155.9956,296.13,88,100,2.68,US,1685958551
158,tanumah,27.1,44.1333,310.66,14,70,3.66,SA,1685958551
159,puyang chengguanzhen,35.7028,115.0053,302.69,35,100,3.74,CN,1685958551
160,yoloten,37.2989,62.3597,312.53,7,0,5.56,TM,1685958551
161,caburan,5.9181,125.6411,301.13,82,98,3.81,PH,1685958552
162,kone,-21.0595,164.8658,294.37,76,100,1.89,NC,1685958552
163,ebon,4.582,168.6964,302.1,75,74,4.5,MH,1685958552
164,fort william,56.8165,-5.1121,290.06,55,29,0.31,GB,1685958517
165,tralee,52.2704,-9.7026,292.29,52,0,2.06,IE,1685958553
166,samho-rodongjagu,39.9475,127.8711,295.75,61,24,7.86,KP,1685958553
167,general acha,-37.377,-64.6043,280.31,34,93,4.45,AR,1685958553
168,namibe,-15.1961,12.1522,297.65,49,0,3.87,AO,1685958553
169,taunggyi,20.7833,97.0333,297.87,67,57,1.55,MM,1685958553
170,port elizabeth,-33.918,25.5701,290.98,46,0,10.8,ZA,1685958256
171,mhamid,29.82,-5.72,304.02,24,4,8.26,MA,1685958554
172,tianpeng,30.9866,103.9393,302.41,63,93,1.44,CN,1685958554
173,lerwick,60.1545,-1.1494,283.15,71,100,5.1,GB,1685958555
174,izazi,-7.2,35.7333,305.74,31,34,1.47,TZ,1685958555
175,bamboo flat,11.7,92.7167,304.2,74,40,5.14,IN,1685958555
176,happy valley-goose bay,53.3168,-60.3315,282.32,61,20,3.09,CA,1685958555
177,acajutla,13.5928,-89.8275,300.07,83,95,1.4,SV,1685958556
178,nago,26.5881,127.9761,300.39,76,94,2.87,JP,1685958556
179,muynoq,43.7683,59.0214,308.77,11,0,5.32,UZ,1685958556
180,cockburn town,21.4612,-71.1419,300.97,78,8,3.14,TC,1685958556
181,motueka,-41.1333,173.0167,280.43,77,0,2.51,NZ,1685958557
182,alto piquiri,-24.0281,-53.4406,286.4,90,13,2.0,BR,1685958557
183,buta,2.7858,24.73,304.16,51,55,2.24,CD,1685958557
184,lipljan,42.5217,21.1258,296.31,68,20,2.57,XK,1685958557
185,bahua,25.85,80.6333,313.19,18,60,3.63,IN,1685958557
186,ertil',51.8406,40.8056,289.25,52,46,3.23,RU,1685958558
187,cole harbour,44.6724,-63.4751,281.81,94,100,8.75,CA,1685958558
188,avarua,-21.2078,-159.775,295.18,73,75,2.06,CK,1685958558
189,nangong,37.3581,115.3744,306.48,19,73,6.23,CN,1685958558
190,villaguay,-31.8653,-59.0269,281.64,75,51,3.36,AR,1685958558
191,puqi,29.7167,113.8833,294.54,88,100,3.02,CN,1685958559
192,halifax,44.6453,-63.5724,282.09,95,100,8.75,CA,1685957967
193,palmares do sul,-30.2578,-50.5097,291.1,90,100,5.26,BR,1685958559
194,yuzhno-kurilsk,44.0306,145.8556,281.07,84,18,0.98,RU,1685958559
195,bam,29.106,58.357,311.76,10,83,4.43,IR,1685958560
196,taki,22.5861,88.9214,312.12,43,34,7.84,IN,1685958560
197,itoman,26.1247,127.6694,300.36,77,75,5.14,JP,1685958560
198,boa vista,2.8197,-60.6733,298.14,88,75,0.51,BR,1685958560
199,santa vitoria do palmar,-33.5189,-53.3681,281.68,84,3,2.31,BR,1685958561
200,pavlovka,52.6897,47.1405,291.74,41,55,3.24,RU,1685958561
201,zhanaozen,43.3,52.8,306.59,28,48,5.85,KZ,1685958561
202,luderitz,-26.6481,15.1594,292.37,41,0,1.11,NA,1685958561
203,fale old settlement,-9.3852,-171.2468,301.4,77,37,7.31,TK,1685958561
204,johi,26.6921,67.6133,316.47,17,3,2.84,PK,1685958562
205,bontang,0.1333,117.5,300.59,82,24,1.34,ID,1685958562
206,fort bragg,35.139,-79.006,288.61,80,40,0.0,US,1685958562
207,hadibu,12.65,54.0333,304.07,67,86,1.76,YE,1685958562
208,udachny,66.4167,112.4,277.29,64,100,6.62,RU,1685958563
209,adi keyh,14.8444,39.3772,296.29,36,53,4.48,ER,1685958563
210,aasiaat,68.7098,-52.8699,270.9,77,55,1.84,GL,1685958563
211,cox's bazar,21.4532,91.9798,304.14,71,99,5.38,BD,1685958563
212,yerofey pavlovich,53.9667,121.9667,283.66,73,100,4.32,RU,1685958564
213,vila velha,-20.3297,-40.2925,290.34,92,0,1.03,BR,1685958564
214,fratesti,43.9667,25.9667,296.9,31,17,4.65,RO,1685958564
215,minas de marcona,-15.2119,-75.1103,285.6,88,61,4.91,PE,1685958564
216,orsa,54.5153,30.4053,289.52,57,39,5.28,BY,1685958326
217,turinsk,58.0458,63.696,298.72,45,57,4.02,RU,1685958565
218,villa dolores,-31.9459,-65.1896,285.19,72,97,1.59,AR,1685958565
219,caldwell,43.6629,-116.6874,291.57,72,0,2.06,US,1685958566
220,atafu village,-8.5421,-172.5159,301.6,78,87,6.82,TK,1685958566
221,alofi,-19.0595,-169.9187,297.29,71,100,8.83,NU,1685958566
222,papatowai,-46.5619,169.4708,281.29,85,100,1.34,NZ,1685958566
223,janeng,-25.4167,25.55,288.95,20,0,3.71,BW,1685958566
224,qamdo,31.1667,97.2333,289.37,21,20,5.2,CN,1685958567
225,thika,-1.0333,37.0693,297.21,46,72,1.96,KE,1685958567
226,douz,33.4663,9.0203,299.76,51,78,10.52,TN,1685958567
227,remire-montjoly,4.9167,-52.2667,296.17,100,100,0.0,GF,1685958567
228,nobeoka,32.5833,131.6667,294.26,64,100,1.26,JP,1685958567
229,chegdomyn,51.1167,133.0167,287.52,74,88,0.84,RU,1685958568
230,tazovsky,67.4667,78.7,285.76,65,99,4.05,RU,1685958291
231,ebaye,8.7748,167.7392,301.16,83,40,7.2,MH,1685958568
232,sovetskiy,61.3614,63.5842,294.52,22,44,5.02,RU,1685958568
233,baracatan,6.9675,125.4158,300.46,88,80,1.13,PH,1685958569
234,umm kaddadah,13.6017,26.6876,306.24,34,99,2.32,SD,1685958569
235,dhariwal,31.9542,75.3192,312.52,14,67,3.21,IN,1685958569
236,codrington,-38.2667,141.9667,287.99,75,100,7.34,AU,1685958569
237,marsh harbour,26.5412,-77.0636,299.1,75,0,4.54,BS,1685958569
238,quelimane,-17.8786,36.8883,304.12,48,0,5.36,MZ,1685958569
239,belyy yar,53.6039,91.3903,304.09,25,0,3.0,RU,1685958570
240,great falls,47.5002,-111.3008,289.81,82,0,3.6,US,1685958570
241,sisimiut,66.9395,-53.6735,272.6,75,57,2.34,GL,1685958570
242,namdrik,5.5994,168.1028,301.71,77,76,4.57,MH,1685958570
243,rasht,37.2808,49.5832,302.05,65,40,2.06,IR,1685958412
244,marsala,37.7966,12.4352,292.12,100,40,3.09,IT,1685958571
245,serowe,-22.3833,26.7167,301.12,21,0,3.2,BW,1685958571
246,polyarnyy,69.1989,33.4478,276.38,94,100,10.32,RU,1685958415
247,svetlyy,54.675,20.1347,290.18,43,0,0.42,RU,1685958571
248,baoying,33.2292,119.3092,290.31,93,100,2.08,CN,1685958572
249,niafunke,15.9322,-3.9906,309.01,31,100,4.76,ML,1685958572
250,aswan,24.0934,32.907,314.76,13,0,5.14,EG,1685958423
251,phan rang-thap cham,11.5667,108.9833,300.24,83,96,0.83,VN,1685958572
252,san rafael del sur,11.8485,-86.4384,298.45,86,99,0.49,NI,1685958572
253,arkhangel'sk,64.5401,40.5433,283.57,77,100,4.81,RU,1685958458
254,mirnyy,62.5353,113.9611,287.17,30,100,3.13,RU,1685958573
255,sharan,54.8167,54.0,291.62,42,19,3.8,RU,1685958573
256,nioki,-2.7167,17.6833,304.75,52,79,1.4,CD,1685958422
257,ponta delgada,37.7333,-25.6667,293.55,83,20,2.06,PT,1685958574
258,port saint john's,-31.6229,29.5448,293.31,36,2,7.01,ZA,1685958574
259,nadym,65.5333,72.5167,295.89,53,44,5.36,RU,1685958574
260,brandon,27.9378,-82.2859,295.53,94,0,2.06,US,1685958574
261,zhoushan,30.0108,122.2047,295.42,98,90,2.98,CN,1685958575
262,ghat,24.9647,10.1728,309.87,8,0,3.85,LY,1685958575
263,cabo san lucas,22.8909,-109.9124,296.21,57,7,0.89,MX,1685958575
264,acarau,-2.8856,-40.12,297.83,87,94,4.43,BR,1685958575
265,oriximina,-1.7656,-55.8661,296.05,95,25,1.2,BR,1685958576
266,antonio enes,-16.2325,39.9086,302.09,58,2,5.71,MZ,1685958576
267,buka,40.8108,69.1986,310.55,8,4,3.15,UZ,1685958576
268,kapuskasing,49.4169,-82.4331,286.2,88,100,4.12,CA,1685958576
269,weno,7.4515,151.8468,302.12,84,75,2.57,FM,1685958577
270,kimbe,-5.5502,150.1429,298.84,90,57,1.3,PG,1685958577
271,valle de la pascua,9.2155,-66.0073,296.29,91,96,1.75,VE,1685958577
272,masterton,-40.9597,175.6575,281.47,82,97,3.21,NZ,1685958577
273,malango,-2.9627,119.9001,294.29,97,89,0.67,ID,1685958577
274,linfen,36.0889,111.5189,301.92,35,63,3.9,CN,1685958578
275,shendi,16.6915,33.4341,314.17,17,9,4.33,SD,1685958327
276,akureyri,65.6835,-18.0878,286.11,47,75,2.06,IS,1685958578
277,duba,27.3513,35.6901,305.34,51,0,4.2,SA,1685958578
278,ungsang-nodongjagu,42.3578,130.4622,288.57,80,97,5.05,KP,1685958579
279,capbreton,43.6422,-1.4282,297.25,97,34,2.53,FR,1685958017
280,khovd,48.0056,91.6419,297.16,21,4,4.8,MN,1685958579
281,popondetta,-8.7537,148.2534,297.4,90,92,0.84,PG,1685958579
282,rio gallegos,-51.6226,-69.2181,278.18,81,75,10.29,AR,1685958579
283,nagqu,31.5,92.0,287.68,24,99,8.02,CN,1685958580
284,makubetsu,45.3714,141.8211,287.99,63,20,4.63,JP,1685958580
285,bubaque,11.2833,-15.8333,300.5,71,79,4.18,GW,1685958580
286,pisco,-13.7,-76.2167,293.18,77,100,0.51,PE,1685958580
287,sungai raya,0.7,108.9,300.61,85,94,3.34,ID,1685958580
288,new norfolk,-42.7826,147.0587,284.87,82,100,1.37,AU,1685958581
289,coronel suarez,-37.4547,-61.9334,277.42,42,93,2.78,AR,1685958581
290,san juan bautista,-14.0108,-75.7358,289.62,83,0,0.95,PE,1685958581
291,khanty-mansiysk,61.0042,69.0019,301.21,39,0,5.0,RU,1685958478
292,hami,42.8,93.45,302.64,13,39,2.84,CN,1685958582
293,nuku'alofa,-21.1333,-175.2,293.34,88,20,2.57,TO,1685958582
294,mahibadhoo,3.7833,72.9667,301.45,78,100,7.37,MV,1685958582
295,ilhabela,-23.7781,-45.3581,291.98,73,4,1.72,BR,1685958582
296,tyul'gan,52.3405,56.166,300.25,41,37,3.65,RU,1685958582
297,belmonte,-15.8631,-38.8828,295.31,71,28,2.26,BR,1685958583
298,key west,24.5557,-81.7826,301.48,78,0,2.57,US,1685958583
299,san julian,21.0167,-102.1667,288.54,30,62,0.73,MX,1685958583
300,lazaro cardenas,17.9583,-102.2,299.22,82,100,1.71,MX,1685958583
301,wotho,10.1657,166.0102,301.31,78,81,4.03,MH,1685958584
302,whakatane,-37.9585,176.9854,286.77,85,100,1.34,NZ,1685958584
303,cabedelo,-6.9811,-34.8339,296.52,76,66,6.22,BR,1685958584
304,benguela,-12.5763,13.4055,297.76,75,22,3.45,AO,1685958584
305,marica,-22.9194,-42.8186,292.1,79,0,1.71,BR,1685958584
306,mirny,62.5353,113.9611,287.17,30,100,3.13,RU,1685958573
307,fortuna,40.5982,-124.1573,283.34,95,20,1.34,US,1685958585
308,puerto armuelles,8.2833,-82.8667,299.91,96,100,0.19,PA,1685958585
309,burao,9.5221,45.5336,303.29,38,99,6.59,SO,1685958585
310,barah,13.7,30.3667,310.55,26,56,2.24,SD,1685958586
311,newnham,-41.3833,147.1333,284.99,81,100,3.09,AU,1685958586
312,wewak,-3.5534,143.6268,300.63,85,34,3.85,PG,1685958586
313,zhangjiakou,40.81,114.8794,300.88,20,81,6.47,CN,1685958586
314,taranagar,28.6709,75.0351,311.61,21,1,3.17,IN,1685958587
315,thompson,55.7435,-97.8558,288.24,77,100,2.57,CA,1685958587
316,pucheng,27.9233,118.5333,297.99,95,95,1.43,CN,1685958587
317,port augusta,-32.5,137.7667,291.74,55,99,4.41,AU,1685958588
318,vicuna,-30.0319,-70.7081,280.0,23,95,0.74,CL,1685958588
319,montepuez,-13.1256,38.9997,300.46,43,33,4.02,MZ,1685958588
320,freetown,8.484,-13.2299,299.99,89,75,2.57,SL,1685958381
321,gilgit,35.9221,74.3087,297.57,28,88,1.45,PK,1685958588
322,gaspe,48.8334,-64.4819,280.1,93,100,0.0,CA,1685958589
323,fuglafjordur,62.244,-6.814,283.41,68,91,6.66,FO,1685958589
324,lubang,13.8584,120.124,302.61,73,92,3.86,PH,1685958589
325,kansanshi,-12.0951,26.4273,299.71,29,14,2.62,ZM,1685958589
326,poronaysk,49.2167,143.1167,283.56,69,65,4.05,RU,1685958590
327,faya-largeau,17.9257,19.1043,316.34,10,8,5.03,TD,1685958590
328,bopolu,7.0667,-10.4875,299.43,88,100,0.71,LR,1685958590
329,kathmandu,27.7167,85.3167,300.27,47,75,2.06,NP,1685958590
330,khartoum,15.5518,32.5324,311.95,23,35,2.74,SD,1685958569
331,nemuro,43.3236,145.575,283.06,84,29,2.59,JP,1685958591
332,kuytun,54.3419,101.5036,294.87,49,100,2.32,RU,1685958591
333,labytnangi,66.6572,66.4183,287.08,71,92,7.09,RU,1685958591
334,ketchikan,55.3422,-131.6461,282.41,93,100,2.57,US,1685958591
335,pingzhuang,42.0372,119.2889,300.11,16,65,5.06,CN,1685958591
336,den helder,52.9599,4.7593,290.36,70,100,3.6,NL,1685958592
337,playa del ingles,27.7567,-15.5787,297.01,79,100,1.34,ES,1685958399
338,lompoc,34.6391,-120.4579,289.14,88,100,3.13,US,1685958592
339,mount gambier,-37.8333,140.7667,287.04,83,94,4.87,AU,1685958592
340,soc trang,9.6033,105.98,305.97,52,94,7.33,VN,1685958593
341,pangkalanbuun,-2.6833,111.6167,299.18,90,94,1.37,ID,1685958593
342,pervomayskoye,43.919,46.7102,304.39,36,4,4.32,RU,1685958593
343,angaur state,6.906,134.13,301.57,78,98,6.47,PW,1685958593
344,goondiwindi,-28.55,150.3167,289.92,63,100,7.19,AU,1685958593
345,ovalle,-30.5983,-71.2003,288.48,60,94,0.68,CL,1685958594
346,sterling,39.0062,-77.4286,287.53,85,0,2.68,US,1685958594
347,naze,28.3667,129.4833,297.66,69,99,4.1,JP,1685958594
348,callao,-12.0667,-77.15,295.31,68,100,1.54,PE,1685958594
349,pacasmayo,-7.4006,-79.5714,294.64,83,42,2.72,PE,1685958594
350,fort st. john,56.2499,-120.8529,280.09,53,40,2.57,CA,1685958469
351,zeya,53.75,127.2667,286.64,92,99,4.98,RU,1685958595
352,manokwari,-0.8667,134.0833,300.6,80,80,1.97,ID,1685958595
353,korla,41.7597,86.1469,304.38,11,0,3.55,CN,1685958595
354,takhatgarh,25.3333,73.0,314.43,21,0,4.5,IN,1685958596
355,coondapoor,13.6333,74.7,304.51,64,70,4.55,IN,1685958596
356,mouila,-1.8685,11.0559,301.1,74,75,0.8,GA,1685958596
357,smithers,54.7804,-127.1743,275.33,93,75,1.03,CA,1685958596
358,saint-affrique,43.9558,2.8892,298.03,68,16,1.16,FR,1685958597
359,daltonganj,24.0333,84.0667,315.15,14,21,5.18,IN,1685958597
360,khuzdar,27.7384,66.6434,310.3,8,5,8.08,PK,1685958597
361,east london,-33.0153,27.9116,291.67,36,0,11.32,ZA,1685958597
362,vokhtoga,58.8147,41.0461,286.51,65,98,4.46,RU,1685958598
363,kingston,17.997,-76.7936,300.68,85,20,2.57,JM,1685958598
364,champerico,14.3,-91.9167,298.03,81,100,1.15,GT,1685958598
365,apodi,-5.6642,-37.7989,297.51,74,29,4.86,BR,1685958599
366,ribas do rio pardo,-20.4431,-53.7592,287.81,89,6,1.17,BR,1685958599
367,saldanha,-33.0117,17.9442,286.18,57,100,3.47,ZA,1685958599
368,oranjemund,-28.55,16.4333,290.18,46,33,4.24,NA,1685958599
369,hobyo,5.3505,48.5268,303.5,65,62,10.61,SO,1685958600
370,santa elena de uairen,4.6167,-61.1333,292.2,93,84,0.79,VE,1685958600
371,keren,15.7778,38.4581,305.57,22,15,4.83,ER,1685958600
372,crane,31.3974,-102.3501,293.03,64,96,2.6,US,1685958600
373,rawson,-43.3002,-65.1023,283.65,38,100,10.66,AR,1685958601
374,clarinda,40.7419,-95.0383,292.33,100,0,0.0,US,1685958601
375,broken hill,-31.95,141.4333,289.64,71,21,3.9,AU,1685958601
376,peniche,39.3558,-9.3811,296.09,78,9,4.38,PT,1685958601
377,flying fish cove,-10.4217,105.6791,298.97,73,75,5.14,CX,1685958602
378,la ronge,55.1001,-105.2842,290.29,94,75,3.09,CA,1685958602
379,santa ana,33.7456,-117.8678,290.85,87,100,3.09,US,1685958602
380,malanje,-9.5402,16.341,300.8,34,100,1.94,AO,1685958602
381,queenstown,-31.8976,26.8753,285.12,31,19,5.96,ZA,1685958603
382,revelstoke,50.9832,-118.2023,290.16,51,0,3.09,CA,1685958478
383,sao jose da coroa grande,-8.8978,-35.1478,298.24,82,76,4.04,BR,1685958603
384,uacu cungo,-11.3634,15.1208,301.32,29,15,1.91,AO,1685958603
385,burang,30.25,81.1667,277.76,85,100,3.51,CN,1685958604
386,talara,-4.5772,-81.2719,296.25,77,97,5.68,PE,1685958604
387,chernyshevsk,52.5243,117.0174,291.4,30,83,4.23,RU,1685958604
388,tutoia,-2.7619,-42.2744,296.98,92,80,2.97,BR,1685958604
389,hooper,41.1638,-112.1224,288.81,65,0,6.17,US,1685958604
390,les anglais,18.3054,-74.2197,299.25,89,14,3.04,HT,1685958605
391,machico,32.7,-16.7667,295.38,87,40,5.14,PT,1685958318
392,touros,-5.1989,-35.4608,298.2,83,59,5.89,BR,1685958605
393,tamiahua,21.2667,-97.45,298.31,85,8,0.87,MX,1685958605
394,newman,37.3138,-121.0208,293.28,68,26,1.34,US,1685958606
395,aykhal,66.0,111.5,275.15,76,100,6.93,RU,1685958606
396,tynda,55.1667,124.7167,286.0,57,99,5.62,RU,1685958606
397,labuan bajo,-8.4964,119.8877,299.1,84,64,1.76,ID,1685958606
398,myskhako,44.6714,37.7433,294.03,68,89,6.5,RU,1685958606
399,el salto,20.3333,-104.5,289.32,28,2,1.19,MX,1685958607
400,prineville,44.2999,-120.8345,290.54,60,0,2.57,US,1685958383
401,san felipe,10.3399,-68.7425,296.11,92,100,2.04,VE,1685958607
402,sandnessjoen,66.0217,12.6316,280.44,76,75,3.6,NO,1685958607
403,chimala,-8.85,34.0167,301.41,38,10,2.29,TZ,1685958608
404,wenling,28.3669,121.36,298.16,94,99,2.3,CN,1685958608
405,micheweni,-4.9667,39.8333,299.82,79,17,3.96,TZ,1685958608
406,port alfred,-33.5906,26.891,291.58,46,56,4.47,ZA,1685958608
407,arhribs,36.7936,4.3116,294.53,63,100,2.53,DZ,1685958609
408,greymouth,-42.4667,171.2,278.74,84,11,4.44,NZ,1685958609
409,hilo,19.7297,-155.09,294.4,90,0,2.06,US,1685958412
410,miri,4.4148,114.0089,301.23,83,40,4.12,MY,1685958609
411,island harbour,50.724,-1.2758,290.92,66,4,2.68,GB,1685958609
412,dunedin,-45.8742,170.5036,281.93,75,100,1.34,NZ,1685958610
413,krapivinskiy,54.9992,86.8133,304.62,37,6,2.59,RU,1685958610
414,biswan,27.5,81.0,310.41,20,100,2.75,IN,1685958610
415,lincoln city,44.9582,-124.0179,283.73,83,7,7.15,US,1685958610
416,pacific grove,36.6177,-121.9166,285.38,92,100,2.57,US,1685958611
417,monteiro,-7.8894,-37.12,294.62,77,95,4.43,BR,1685958611
418,cholpon-ata,42.6494,77.0823,293.18,43,53,1.63,KG,1685958611
419,port-gentil,-0.7193,8.7815,302.13,65,20,5.66,GA,1685958611
420,nadi,-17.8,177.4167,296.15,88,20,3.09,FJ,1685958611
421,belomorsk,64.5232,34.7668,287.58,52,98,7.0,RU,1685958612
422,chapaev,50.2,51.1667,301.71,38,67,6.42,KZ,1685958612
423,hwange,-18.3693,26.5019,302.52,21,0,3.24,ZW,1685958612
424,mareeba,-17.0,145.4333,295.06,87,99,1.33,AU,1685958612
425,aripuana,-9.1667,-60.6333,294.92,88,2,1.07,BR,1685958612
426,changleng,28.7,115.8167,297.77,89,97,3.15,CN,1685958613
427,wangaratta,-36.3667,146.3333,286.74,93,100,3.45,AU,1685958613
428,arevalo,41.0626,-4.7204,296.65,46,44,1.34,ES,1685958613
429,bodo,67.28,14.405,280.8,73,75,10.29,NO,1685958379
430,bayanaul,50.7889,75.6956,306.09,18,6,4.48,KZ,1685958614
431,palikir - national government center,6.9248,158.1611,299.56,89,100,1.54,FM,1685958614
432,dax,43.75,-1.1667,298.65,86,41,1.03,FR,1685958601
433,thames,-37.1333,175.5333,285.57,91,100,5.88,NZ,1685958614
434,san patricio,28.017,-97.5169,300.07,87,41,0.89,US,1685958614
435,antofagasta,-23.65,-70.4,287.75,83,29,1.84,CL,1685958615
436,kas,36.2018,29.6377,297.49,67,9,3.16,TR,1685958497
437,swift current,50.2834,-107.8014,291.6,88,0,3.6,CA,1685958615
438,siwa oasis,29.2041,25.5195,306.51,21,23,4.23,EG,1685958615
439,ushibukamachi,32.1906,130.0228,294.06,71,100,4.57,JP,1685958616
440,sudzha,51.1976,35.2726,290.15,49,33,2.91,RU,1685958616
441,kadugli,11.0167,29.7167,308.53,32,51,3.9,SD,1685958616
442,show low,34.2542,-110.0298,287.67,52,20,0.0,US,1685958616
443,mossel bay,-34.1831,22.146,289.11,51,83,5.87,ZA,1685958616
444,petropavlovsk-kamchatsky,53.0452,158.6483,279.48,81,75,3.0,RU,1685958078
445,bukama,-9.2,25.85,306.37,29,98,1.54,CD,1685958617
446,strugi-krasnyye,58.2675,29.1114,287.08,47,73,3.8,RU,1685958617
447,karatau,43.1667,70.4667,308.12,8,37,5.26,KZ,1685958617
448,impfondo,1.6381,18.0667,296.84,94,100,1.78,CG,1685958617
449,sudak,44.85,34.9667,293.39,67,27,6.48,UA,1685958618
450,tangalle,6.024,80.7911,306.24,66,89,7.31,LK,1685958618
451,nanao,37.05,136.9667,299.26,76,25,1.97,JP,1685958618
452,salalah,17.0151,54.0924,304.63,61,15,4.46,OM,1685958619
453,mil'kovo,55.6078,37.7956,290.42,53,70,5.92,RU,1685958619
454,tazacorte,28.629,-17.9293,295.69,93,75,5.66,ES,1685958619
455,lethbridge,49.7,-112.8186,289.62,67,0,5.66,CA,1685958619
456,arraial do cabo,-22.9661,-42.0278,289.07,94,0,2.06,BR,1685958620
457,kurchatov,51.6601,35.6521,290.91,48,38,2.92,RU,1685958620
458,ataq,14.5377,46.8319,306.91,19,88,3.36,YE,1685958620
459,sinabang,2.4803,96.3801,301.73,73,93,1.71,ID,1685958620
460,trincomalee,8.5711,81.2335,307.16,54,66,4.38,LK,1685958621
461,severo-yeniseyskiy,60.3725,93.0408,295.34,59,46,4.63,RU,1685958621
462,puerto lempira,15.2667,-83.7667,299.06,91,97,2.51,HN,1685958621
463,mugia,43.1041,-9.2179,291.05,81,79,1.78,ES,1685958621
464,chhatak,25.0333,91.6667,312.47,28,2,4.06,BD,1685958622
465,lynchburg,37.4138,-79.1423,286.74,95,100,0.0,US,1685958622
466,yevpatoriya,45.1972,33.3558,295.03,42,2,6.52,UA,1685958420
467,pointe aux piments,-20.0628,57.5131,299.55,73,19,9.27,MU,1685958622
468,aldinga beach,-35.2793,138.4604,289.06,91,59,3.4,AU,1685958622
469,ciudad melchor muzquiz,27.8833,-101.5167,295.23,64,0,1.65,MX,1685958623
470,betio village,1.358,172.9211,301.17,75,100,5.33,KI,1685958623
471,morondava,-20.2833,44.2833,300.38,57,0,3.65,MG,1685958393
472,calama,-22.4667,-68.9333,278.42,11,0,9.26,CL,1685958623
473,hampton bays,40.869,-72.5176,285.29,85,100,1.54,US,1685958624
474,aksu,41.1231,80.2644,304.1,12,95,1.31,CN,1685958624
475,antsiranana,-12.2787,49.2917,304.57,40,20,10.8,MG,1685958624
476,otra banda,18.6502,-68.6628,300.51,93,8,3.77,DO,1685958624
477,roma,43.2128,-75.4557,284.11,91,0,0.0,US,1685958266
478,longboat key,27.4125,-82.659,296.15,79,0,2.24,US,1685958625
479,necochea,-38.5473,-58.7368,279.38,61,60,3.6,AR,1685958625
480,el bauga,18.262,33.9081,316.02,12,5,3.98,SD,1685958625
481,crucecita,-28.95,-58.9833,292.17,95,91,3.09,AR,1685958625
482,uyar,55.81,94.3153,298.91,50,99,6.62,RU,1685958625
483,bangar,16.8936,120.4243,300.04,88,99,2.44,PH,1685958626
484,puerto deseado,-47.7503,-65.8938,282.01,62,99,13.53,AR,1685958626
485,kudat,6.8837,116.8477,302.11,84,40,3.6,MY,1685958626
486,baardheere,2.3446,42.2764,307.62,36,73,6.94,SO,1685958626
487,quebrangulo,-9.3189,-36.4711,293.81,90,82,1.01,BR,1685958626
488,novaya igirma,57.1334,103.9112,286.95,89,100,4.39,RU,1685958627
489,lobujya,27.95,86.8167,273.44,89,70,3.39,NP,1685958627
490,malchow,53.4748,12.4221,294.55,44,1,1.59,DE,1685958627
491,barra de santo antonio,-9.4047,-35.5072,294.75,81,33,3.11,BR,1685958627
492,mata-utu,-13.2816,-176.1745,300.75,77,55,7.44,WF,1685958628
493,mae chan,20.1467,99.8526,302.96,65,97,1.26,TH,1685958628
494,as sulayyil,20.4607,45.5779,313.29,9,15,0.96,SA,1685958628
495,vila franca do campo,37.7167,-25.4333,293.38,88,100,1.73,PT,1685958628
496,muncar,-8.4333,114.3333,298.89,82,62,3.34,ID,1685958629
497,camacupa,-12.0167,17.4833,299.88,25,14,1.92,AO,1685958629
498,port lincoln,-34.7333,135.8667,289.94,81,69,4.14,AU,1685958629
499,balkanabat,39.5108,54.3671,312.69,12,4,1.49,TM,1685958629
500,mabaruma,8.2,-59.7833,295.79,99,63,0.93,GY,1685958630
501,yarmouth,41.7057,-70.2286,283.69,97,100,9.39,US,1685958354
502,delijan,33.9905,50.6838,306.35,13,43,1.29,IR,1685958630
503,seferihisar,38.1969,26.839,299.72,49,1,4.65,TR,1685958630
504,mpongwe,-13.5091,28.155,302.54,23,0,1.47,ZM,1685958631
505,brookings,44.3114,-96.7984,291.58,91,0,0.0,US,1685958631
506,chonchi,-42.6128,-73.8092,280.44,94,100,4.21,CL,1685958631
507,horta,38.5333,-28.6333,293.16,88,40,7.2,PT,1685958631
508,tubarjal,30.4999,38.216,305.22,18,48,2.95,SA,1685958631
509,rurrenabaque,-14.4413,-67.5278,293.13,99,22,1.21,BO,1685958632
510,ajaccio,42.0,8.9167,294.14,64,40,4.63,FR,1685958596
511,monster,52.0258,4.175,293.13,68,5,4.63,NL,1685958632
512,patterson,37.4716,-121.1297,293.17,68,19,2.01,US,1685958632
513,haiku-pauwela,20.9219,-156.3051,296.51,76,0,1.54,US,1685958632
514,vegreville,53.5001,-112.0518,289.18,82,43,0.51,CA,1685958633
515,warmbad,-28.45,18.7333,287.55,39,7,6.43,NA,1685958633
516,nakatsugawa,35.4833,137.5,290.7,73,97,0.78,JP,1685958633
517,carmelo,-33.9892,-58.2856,281.47,69,67,2.67,UY,1685958633
518,birao,10.2849,22.7882,306.45,41,100,1.37,CF,1685958634
519,gelendzhik,44.5731,38.0747,295.38,69,97,6.59,RU,1685958634
520,tecate,32.5667,-116.6333,287.57,86,19,0.82,MX,1685958451
521,hammerfest,70.6634,23.6821,278.4,87,75,4.63,NO,1685958634
522,lesosibirsk,58.2358,92.4828,304.05,31,90,5.25,RU,1685958634
523,lucapa,-8.4192,20.7447,304.77,20,100,2.58,AO,1685958635
524,quellon,-43.1167,-73.6167,282.29,93,100,9.26,CL,1685958635
525,taroudant,30.4703,-8.877,297.82,48,65,1.48,MA,1685958635
526,blythe,33.6103,-114.5964,300.4,16,0,1.54,US,1685958635
527,olinda,-8.0089,-34.8553,296.0,94,40,2.06,BR,1685958635
528,gornozavodsk,58.3758,58.3211,292.06,30,0,3.55,RU,1685958636
529,andergrove,-21.0833,149.1833,294.06,85,54,4.99,AU,1685958636
530,soata,6.3337,-72.6828,288.05,89,88,2.04,CO,1685958636
531,kudahuvadhoo,2.6708,72.8944,301.52,77,100,5.94,MV,1685958636
532,mitsamiouli,-11.3847,43.2844,304.31,48,20,6.17,KM,1685958637
533,nema,57.5067,50.5011,290.14,42,10,3.46,RU,1685958637
534,jiaojiang,28.6803,121.4428,298.4,93,100,1.47,CN,1685958637
535,ingeniero jacobacci,-41.3427,-69.5448,276.47,61,99,1.33,AR,1685958637
536,gejiu,23.306,103.1635,294.04,70,93,3.56,CN,1685958637
537,devils lake,48.1128,-98.8651,293.12,90,0,0.89,US,1685958638
538,verkhniye sergi,56.6469,59.5556,295.52,43,30,3.97,RU,1685958638
539,clinton,42.587,-82.9199,287.33,73,0,2.06,US,1685958638
540,cidreira,-30.1811,-50.2056,291.84,90,100,6.04,BR,1685958638
541,meadow lakes,61.6247,-149.6011,283.55,84,20,0.0,US,1685958639
542,kristiansund,63.1115,7.732,284.18,76,75,5.14,NO,1685958639
543,kavaratti,10.5669,72.642,301.58,77,100,6.84,IN,1685958639
544,road town,18.4167,-64.6167,301.41,80,7,7.62,VG,1685958639
545,chos malal,-37.3781,-70.2709,283.26,25,100,2.93,AR,1685958639
546,la'ie,21.6477,-157.9253,299.13,75,48,1.79,US,1685958640
547,dudinka,69.4058,86.1778,284.05,37,90,5.04,RU,1685958640
548,san luis de la loma,17.2706,-100.8939,299.46,75,59,0.72,MX,1685958640
549,upata,8.0086,-62.3989,297.7,97,74,1.8,VE,1685958640
550,tocopilla,-22.092,-70.1979,290.01,71,14,1.77,CL,1685958641
551,al bayda',32.7627,21.7551,300.47,34,76,5.83,LY,1685958641
552,jawf al maqbabah,13.8378,45.8349,305.16,43,22,4.62,YE,1685958641
553,bakal,54.9417,58.8083,290.68,71,78,2.12,RU,1685958641
554,manismata,-2.4667,111.0333,298.82,94,86,1.36,ID,1685958642
555,segezha,63.7415,34.3222,285.33,62,92,7.32,RU,1685958642
556,ji'an,27.1172,114.9793,296.7,93,100,0.99,CN,1685958642
557,mejit,10.2753,170.8646,299.89,83,100,9.59,MH,1685958642
558,kantagi,43.5264,68.5775,307.79,8,30,3.13,KZ,1685958642
559,riosucio,5.4216,-75.7032,286.68,96,76,0.18,CO,1685958643
560,palmer,42.1584,-72.3287,284.36,79,100,2.06,US,1685958643
561,saint-pierre,-21.3393,55.4781,300.13,65,20,8.75,RE,1685958606
562,ocos,14.5094,-92.1933,297.66,82,98,1.63,GT,1685958643
563,vereshchagino,58.0789,54.6557,290.93,33,1,2.6,RU,1685958543
564,kuanda,56.3161,116.0806,289.37,31,77,3.34,RU,1685958644
565,quepos,9.4236,-84.1652,298.65,86,100,1.56,CR,1685958644
566,fisterra,42.9049,-9.2629,290.31,85,74,1.54,ES,1685958644
567,saint-jean-de-monts,46.7833,-2.0667,294.47,61,34,4.55,FR,1685958644
